[
  {
    "name": "Rockfort motor work Rental agency",
    "phone": "9659972059",
    "address": "railway junction, TWO WHEELER PARKING, Bharathiyar Salai, Sangillyandapuram, Tiruchirappalli, Tamil Nadu 620001",
    "category": "Rental",
    "hours": "24hrs",
    "distance": ""
  },
  {
    "name": "Cj two wheeler rental",
    "phone": "9003399778",
    "address": "18, 11th Cross, Tiruchirappalli, Aadhi Nagar Srinivasa Nagar 7th Main Road, Puthur, Trichy-620017, Tamil Nadu",
    "category": "Rental",
    "hours": "24hrs",
    "distance": ""
  },
  {
    "name": "Sai rental agency",
    "phone": "8012427340",
    "address": "Token Parking, Tiruchirappalli Junction, Parking, Tiruchirappalli, Tiruchirappalli Cantt, Trichy-620001, Tamil Nadu",
    "category": "Rental",
    "hours": "24 hrs",
    "distance": ""
  },
  {
    "name": "Sfa bike rental trichy",
    "phone": "8778264576",
    "address": "First floor,taj complex,no.7,madurai rd,palakarai,trichy,tamilnadu,620008",
    "category": "Rental",
    "hours": "8am to 9pm",
    "distance": ""
  },
  {
    "name": "As bikes rental service",
    "phone": "9944634112",
    "address": "No 4, Near Fort Station, Railway Station Road, Rock Fort, Trichy-620002, Tamil Nadu",
    "category": "Rental",
    "hours": "",
    "distance": ""
  }
]
