[
  {
    "name": "Shivam travels",
    "phone": "072005 16772",
    "address": "LIC Colony, Ayyappa Nagar, K K Nagar, Tiruchirappalli",
    "category": "Cabs",
    "hours": "",
    "distance": ""
  },
  {
    "name": "Sachu cabs",
    "phone": "095141 24166",
    "address": "No - 2, MMM TOWER, Nandhi Koil St, Theppakulam, Tiruchirappalli",
    "category": "Cabs",
    "hours": "",
    "distance": ""
  },
  {
    "name": "Siva cabs",
    "phone": "097875 67945",
    "address": "14, Kulapatty, Airport, PO, Tiruchirappalli, Tamil Nadu 620007",
    "category": "Cabs",
    "hours": "",
    "distance": ""
  },
  {
    "name": "VKP Tours and Travels",
    "phone": "096778 47574",
    "address": "No: 29 Malligaipuram, Palakarai, Sangillyandapuram, Tiruchirappalli",
    "category": "Cabs",
    "hours": "",
    "distance": ""
  },
  {
    "name": "Royal cabs and tours",
    "phone": "081240 40408",
    "address": "203, Race Course Road, near jum jum tea stall, Kajamalai Colony",
    "category": "Cabs",
    "hours": "",
    "distance": ""
  },
  {
    "name": "KN Tours and Travels",
    "phone": "082489 36196",
    "address": "Thiruverumbur",
    "category": "Cabs",
    "hours": "",
    "distance": ""
  },
  {
    "name": "Surya Cabs",
    "phone": "",
    "address": "Thiruverumbur",
    "category": "Cabs",
    "hours": "",
    "distance": ""
  },
  {
    "name": "Rainbow Cabs",
    "phone": "080150 98071",
    "address": "Kattur",
    "category": "Cabs",
    "hours": "",
    "distance": ""
  },
  {
    "name": "Navish taxi",
    "phone": "096774 62876",
    "address": "First Floor, Paul's Complex, No.135-B-5A, Bharathiar Salai",
    "category": "Cabs",
    "hours": "",
    "distance": ""
  },
  {
    "name": "Janani Cabs",
    "phone": "097904 64651",
    "address": "4th St, Dhanamani Colony, Palakkarai, Tiruchirappalli",
    "category": "Cabs",
    "hours": "",
    "distance": ""
  },
  {
    "name": "Thiruverumbur Meter Auto",
    "phone": "95143 23191",
    "address": "Thiruverumbur",
    "category": "Auto",
    "hours": "",
    "distance": ""
  },
  {
    "name": "hurryupcabs.com",
    "phone": "",
    "address": "website that offers cab service in Trichy",
    "category": "Website",
    "hours": "",
    "distance": ""
  }
]
